{
   "type": "FeatureCollection",
   "features": [
  {
    "type": "Feature",
    "geometry": {
       "type": "Point",
       "coordinates":  [ -0.243986,51.506571 ]
    },
    "properties": {
    "fsa_ID":114007,
    "name":"Acton Vale Working Mens Club",
    "address":"265 - 267 Uxbridge Road, London",
    "postcode":"W12 9DS",
    "easting":521968,
    "northing":180088,
    "authority":"Hammersmith and Fulham"
    }
  },
  {
    "type": "Feature",
    "geometry": {
       "type": "Point",
       "coordinates":  [ -0.232821,51.496836 ]
    },
    "properties": {
    "fsa_ID":114060,
    "name":"Andover Arms",
    "address":"57 Aldensley Road, London",
    "postcode":"W6 0DL",
    "easting":522769,
    "northing":179025,
    "authority":"Hammersmith and Fulham"
    }
  },
  {
    "type": "Feature",
    "geometry": {
       "type": "Point",
       "coordinates":  [ -0.200597,51.47623 ]
    },
    "properties": {
    "fsa_ID":114061,
    "name":"Andrew Robson Bridge Club",
    "address":"31 Parsons Green Lane, London",
    "postcode":"SW6 4HH",
    "easting":525062,
    "northing":176787,
    "authority":"Hammersmith and Fulham"
    }
  },
  {
    "type": "Feature",
    "geometry": {
       "type": "Point",
       "coordinates":  [ -0.235942,51.499203 ]
    },
    "properties": {
    "fsa_ID":114063,
    "name":"Anglesea Arms",
    "address":"35 Wingate Road, London",
    "postcode":"W6 0UR",
    "easting":522546,
    "northing":179282,
    "authority":"Hammersmith and Fulham"
    }
  },
  {
    "type": "Feature",
    "geometry": {
       "type": "Point",
       "coordinates":  [ -0.200565,51.47247 ]
    },
    "properties": {
    "fsa_ID":114074,
    "name":"Aragon House",
    "address":"249 New King's Road, London",
    "postcode":"SW6 4XG",
    "easting":525075,
    "northing":176369,
    "authority":"Hammersmith and Fulham"
    }
  },
  {
    "type": "Feature",
    "geometry": {
       "type": "Point",
       "coordinates":  [ -0.223751,51.493336 ]
    },
    "properties": {
    "fsa_ID":114155,
    "name":"Be At One",
    "address":"14A Hammersmith Broadway, London",
    "postcode":"W6 7AL",
    "easting":523408,
    "northing":178651,
    "authority":"Hammersmith and Fulham"
    }
  },
  {
    "type": "Feature",
    "geometry": {
       "type": "Point",
       "coordinates":  [ -0.213607,51.497084 ]
    },
    "properties": {
    "fsa_ID":114156,
    "name":"Beaconsfield",
    "address":"The Beaconsfield, 24 Blythe Road, London",
    "postcode":"W14 0HA",
    "easting":524102,
    "northing":179084,
    "authority":"Hammersmith and Fulham"
    }
  },
  {
    "type": "Feature",
    "geometry": {
       "type": "Point",
       "coordinates":  [ -0.219407,51.503881 ]
    },
    "properties": {
    "fsa_ID":114167,
    "name":"Belushi's",
    "address":"13 - 15 Shepherd's Bush Green, London",
    "postcode":"W12 8PH",
    "easting":523681,
    "northing":179830,
    "authority":"Hammersmith and Fulham"
    }
  },
  {
    "type": "Feature",
    "geometry": {
       "type": "Point",
       "coordinates":  [ -0.224573,51.493303 ]
    },
    "properties": {
    "fsa_ID":114168,
    "name":"Belushi's And St Christopher's",
    "address":"Hammersmith Broadway, London",
    "postcode":"W6 7AB",
    "easting":523351,
    "northing":178645,
    "authority":"Hammersmith and Fulham"
    }
  },
  {
    "type": "Feature",
    "geometry": {
       "type": "Point",
       "coordinates":  [ -0.215685,51.499939 ]
    },
    "properties": {
    "fsa_ID":114188,
    "name":"Bird In Hand",
    "address":"88 Masbro' Road, London",
    "postcode":"W14 0LR",
    "easting":523950,
    "northing":179398,
    "authority":"Hammersmith and Fulham"
    }
  },
  {
    "type": "Feature",
    "geometry": {
       "type": "Point",
       "coordinates":  [ -0.231434,51.489855 ]
    },
    "properties": {
    "fsa_ID":114199,
    "name":"Blue Anchor",
    "address":"13 Lower Mall, London",
    "postcode":"W6 9DJ",
    "easting":522884,
    "northing":178251,
    "authority":"Hammersmith and Fulham"
    }
  },
  {
    "type": "Feature",
    "geometry": {
       "type": "Point",
       "coordinates":  [ -0.194966,51.480612 ]
    },
    "properties": {
    "fsa_ID":114241,
    "name":"Broadway Bar And Grill",
    "address":"474 - 476 Fulham Road, London",
    "postcode":"SW6 1BY",
    "easting":525441,
    "northing":177284,
    "authority":"Hammersmith and Fulham"
    }
  },
  {
    "type": "Feature",
    "geometry": {
       "type": "Point",
       "coordinates":  [ -0.19323,51.475883 ]
    },
    "properties": {
    "fsa_ID":114248,
    "name":"Brook House",
    "address":"Public House, 65 New King's Road, London",
    "postcode":"SW6 4SG",
    "easting":525575,
    "northing":176761,
    "authority":"Hammersmith and Fulham"
    }
  },
  {
    "type": "Feature",
    "geometry": {
       "type": "Point",
       "coordinates":  [ -0.188741,51.480345 ]
    },
    "properties": {
    "fsa_ID":114264,
    "name":"Butchers Hook",
    "address":"The Butcher's Hook, 477 Fulham Road, London",
    "postcode":"SW6 1HL",
    "easting":525874,
    "northing":177266,
    "authority":"Hammersmith and Fulham"
    }
  },
  {
    "type": "Feature",
    "geometry": {
       "type": "Point",
       "coordinates":  [ -0.242719,51.492326 ]
    },
    "properties": {
    "fsa_ID":114324,
    "name":"Carpenter's Arms",
    "address":"89 - 91 Black Lion Lane, London",
    "postcode":"W6 9BG",
    "easting":522094,
    "northing":178507,
    "authority":"Hammersmith and Fulham"
    }
  },
  {
    "type": "Feature",
    "geometry": {
       "type": "Point",
       "coordinates":  [ -0.218806,51.503773 ]
    },
    "properties": {
    "fsa_ID":114339,
    "name":"Central Bar",
    "address":"West 12, The Broadway, Shepherd's Bush Green, London",
    "postcode":"W12 8PP",
    "easting":523723,
    "northing":179819,
    "authority":"Hammersmith and Fulham"
    }
  },
  {
    "type": "Feature",
    "geometry": {
       "type": "Point",
       "coordinates":  [ -0.199449,51.481266 ]
    },
    "properties": {
    "fsa_ID":114392,
    "name":"Cock Tavern",
    "address":"360 North End Road, London",
    "postcode":"SW6 1LY",
    "easting":525128,
    "northing":177350,
    "authority":"Hammersmith and Fulham"
    }
  },
  {
    "type": "Feature",
    "geometry": {
       "type": "Point",
       "coordinates":  [ -0.238236,51.506224 ]
    },
    "properties": {
    "fsa_ID":114408,
    "name":"Coningham Arms",
    "address":"191 Uxbridge Road, London",
    "postcode":"W12 9RA",
    "easting":522368,
    "northing":180058,
    "authority":"Hammersmith and Fulham"
    }
  },
  {
    "type": "Feature",
    "geometry": {
       "type": "Point",
       "coordinates":  [ -0.242719,51.492326 ]
    },
    "properties": {
    "fsa_ID":114449,
    "name":"Cross Keys",
    "address":"The Cross Keys, 57 Black Lion Lane, London",
    "postcode":"W6 9BG",
    "easting":522094,
    "northing":178507,
    "authority":"Hammersmith and Fulham"
    }
  },
  {
    "type": "Feature",
    "geometry": {
       "type": "Point",
       "coordinates":  [ -0.236193,51.503154 ]
    },
    "properties": {
    "fsa_ID":114451,
    "name":"Crown & Sceptre",
    "address":"Crown And Sceptre, 57 Melina Road, London",
    "postcode":"W12 9HY",
    "easting":522518,
    "northing":179721,
    "authority":"Hammersmith and Fulham"
    }
  },
  {
    "type": "Feature",
    "geometry": {
       "type": "Point",
       "coordinates":  [ -0.210026,51.494332 ]
    },
    "properties": {
    "fsa_ID":114456,
    "name":"Cumberland Arms P H",
    "address":"Cumberland Arms, 29 North End Road, London",
    "postcode":"W14 8SZ",
    "easting":524358,
    "northing":178784,
    "authority":"Hammersmith and Fulham"
    }
  },
  {
    "type": "Feature",
    "geometry": {
       "type": "Point",
       "coordinates":  [ -0.210777,51.489137 ]
    },
    "properties": {
    "fsa_ID":114460,
    "name":"Curtain Up",
    "address":"The Curtains Up, 28A Comeragh Road, London",
    "postcode":"W14 9HR",
    "easting":524320,
    "northing":178206,
    "authority":"Hammersmith and Fulham"
    }
  },
  {
    "type": "Feature",
    "geometry": {
       "type": "Point",
       "coordinates":  [ -0.223064,51.505078 ]
    },
    "properties": {
    "fsa_ID":114471,
    "name":"Defectors Weld",
    "address":"170 Uxbridge Road, London",
    "postcode":"W12 8AA",
    "easting":523425,
    "northing":179957,
    "authority":"Hammersmith and Fulham"
    }
  },
  {
    "type": "Feature",
    "geometry": {
       "type": "Point",
       "coordinates":  [ -0.223763,51.490422 ]
    },
    "properties": {
    "fsa_ID":114485,
    "name":"Distillers",
    "address":"Distillers Arms, 64 Fulham Palace Road, London",
    "postcode":"W6 9PH",
    "easting":523415,
    "northing":178326,
    "authority":"Hammersmith and Fulham"
    }
  },
  {
    "type": "Feature",
    "geometry": {
       "type": "Point",
       "coordinates":  [ -0.223763,51.490422 ]
    },
    "properties": {
    "fsa_ID":114512,
    "name":"Duke Of Cornwall",
    "address":"48 Fulham Palace Road, London",
    "postcode":"W6 9PH",
    "easting":523415,
    "northing":178326,
    "authority":"Hammersmith and Fulham"
    }
  },
  {
    "type": "Feature",
    "geometry": {
       "type": "Point",
       "coordinates":  [ -0.199935,51.472577 ]
    },
    "properties": {
    "fsa_ID":114513,
    "name":"Duke On The Green",
    "address":"235 New King's Road, London",
    "postcode":"SW6 4XG",
    "easting":525118,
    "northing":176383,
    "authority":"Hammersmith and Fulham"
    }
  },
  {
    "type": "Feature",
    "geometry": {
       "type": "Point",
       "coordinates":  [ -0.210104,51.468066 ]
    },
    "properties": {
    "fsa_ID":114532,
    "name":"Eight Bells",
    "address":"89 Fulham High Street, London",
    "postcode":"SW6 3JS",
    "easting":524425,
    "northing":175864,
    "authority":"Hammersmith and Fulham"
    }
  },
  {
    "type": "Feature",
    "geometry": {
       "type": "Point",
       "coordinates":  [ -0.189939,51.478098 ]
    },
    "properties": {
    "fsa_ID":114535,
    "name":"Eleusis Club",
    "address":"614 King's Road, London",
    "postcode":"SW6 2DU",
    "easting":525797,
    "northing":177014,
    "authority":"Hammersmith and Fulham"
    }
  },
  {
    "type": "Feature",
    "geometry": {
       "type": "Point",
       "coordinates":  [ -0.224458,51.490702 ]
    },
    "properties": {
    "fsa_ID":114549,
    "name":"Eventim Apollo",
    "address":"Hammersmith Apollo, Queen Caroline Street, London",
    "postcode":"W6 9QH",
    "easting":523366,
    "northing":178356,
    "authority":"Hammersmith and Fulham"
    }
  },
  {
    "type": "Feature",
    "geometry": {
       "type": "Point",
       "coordinates":  [ -0.206219,51.490038 ]
    },
    "properties": {
    "fsa_ID":114556,
    "name":"Famous Three Kings",
    "address":"Three Kings, 171 North End Road, London",
    "postcode":"W14 9NL",
    "easting":524634,
    "northing":178313,
    "authority":"Hammersmith and Fulham"
    }
  },
  {
    "type": "Feature",
    "geometry": {
       "type": "Point",
       "coordinates":  [ -0.225527,51.505475 ]
    },
    "properties": {
    "fsa_ID":114581,
    "name":"FM Bar And Restaurant",
    "address":"176 - 184 Uxbridge Road, London",
    "postcode":"W12 7JP",
    "easting":523252,
    "northing":179998,
    "authority":"Hammersmith and Fulham"
    }
  },
  {
    "type": "Feature",
    "geometry": {
       "type": "Point",
       "coordinates":  [ -0.229861,51.490308 ]
    },
    "properties": {
    "fsa_ID":114677,
    "name":"Hammersmith Club",
    "address":"Hammersmith Club Society, 11 Rutland Grove, London",
    "postcode":"W6 9DH",
    "easting":522992,
    "northing":178303,
    "authority":"Hammersmith and Fulham"
    }
  },
  {
    "type": "Feature",
    "geometry": {
       "type": "Point",
       "coordinates":  [ -0.208411,51.495845 ]
    },
    "properties": {
    "fsa_ID":114681,
    "name":"Hand And Flower",
    "address":"1 Hammersmith Road, London",
    "postcode":"W14 8XJ",
    "easting":524466,
    "northing":178956,
    "authority":"Hammersmith and Fulham"
    }
  },
  {
    "type": "Feature",
    "geometry": {
       "type": "Point",
       "coordinates":  [ -0.197847,51.482446 ]
    },
    "properties": {
    "fsa_ID":114694,
    "name":"Harwood Arms",
    "address":"Walham Grove, London",
    "postcode":"SW6 1QP",
    "easting":525236,
    "northing":177484,
    "authority":"Hammersmith and Fulham"
    }
  },
  {
    "type": "Feature",
    "geometry": {
       "type": "Point",
       "coordinates":  [ -0.209943,51.469242 ]
    },
    "properties": {
    "fsa_ID":114834,
    "name":"Kings Arms",
    "address":"Larrik, 425 New King's Road, London",
    "postcode":"SW6 4RN",
    "easting":524433,
    "northing":175994,
    "authority":"Hammersmith and Fulham"
    }
  },
  {
    "type": "Feature",
    "geometry": {
       "type": "Point",
       "coordinates":  [ -0.211324,51.471107 ]
    },
    "properties": {
    "fsa_ID":114836,
    "name":"Kings Head",
    "address":"The Kings Head, 4 Fulham High Street, London",
    "postcode":"SW6 3LQ",
    "easting":524332,
    "northing":176200,
    "authority":"Hammersmith and Fulham"
    }
  },
  {
    "type": "Feature",
    "geometry": {
       "type": "Point",
       "coordinates":  [ -0.19284,51.480139 ]
    },
    "properties": {
    "fsa_ID":114842,
    "name":"Kona Kai",
    "address":"515 Fulham Road, London",
    "postcode":"SW6 1HD",
    "easting":525590,
    "northing":177236,
    "authority":"Hammersmith and Fulham"
    }
  },
  {
    "type": "Feature",
    "geometry": {
       "type": "Point",
       "coordinates":  [ -0.217467,51.493042 ]
    },
    "properties": {
    "fsa_ID":114872,
    "name":"Latymers",
    "address":"157 Hammersmith Road, London",
    "postcode":"W6 8BS",
    "easting":523845,
    "northing":178628,
    "authority":"Hammersmith and Fulham"
    }
  },
  {
    "type": "Feature",
    "geometry": {
       "type": "Point",
       "coordinates":  [ -0.206934,51.474014 ]
    },
    "properties": {
    "fsa_ID":114897,
    "name":"Little Blue Door",
    "address":"Fulham Wine Rooms, 871 - 873 Fulham Road, London",
    "postcode":"SW6 5HP",
    "easting":524629,
    "northing":176530,
    "authority":"Hammersmith and Fulham"
    }
  },
  {
    "type": "Feature",
    "geometry": {
       "type": "Point",
       "coordinates":  [ -0.236576,51.490616 ]
    },
    "properties": {
    "fsa_ID":114930,
    "name":"London Corinthian Club",
    "address":"Linden House, 60 Upper Mall, London",
    "postcode":"W6 9TA",
    "easting":522525,
    "northing":178327,
    "authority":"Hammersmith and Fulham"
    }
  },
  {
    "type": "Feature",
    "geometry": {
       "type": "Point",
       "coordinates":  [ -0.207093,51.493082 ]
    },
    "properties": {
    "fsa_ID":114948,
    "name":"Lytton Estate Community Hall",
    "address":"North End Crescent, London",
    "postcode":"W14 8TE",
    "easting":524566,
    "northing":178650,
    "authority":"Hammersmith and Fulham"
    }
  },
  {
    "type": "Feature",
    "geometry": {
       "type": "Point",
       "coordinates":  [ -0.206834,51.474724 ]
    },
    "properties": {
    "fsa_ID":115114,
    "name":"Octoberfest",
    "address":"678 - 680 Fulham Road, London",
    "postcode":"SW6 5SA",
    "easting":524634,
    "northing":176609,
    "authority":"Hammersmith and Fulham"
    }
  },
  {
    "type": "Feature",
    "geometry": {
       "type": "Point",
       "coordinates":  [ -0.232744,51.501412 ]
    },
    "properties": {
    "fsa_ID":115117,
    "name":"O'Donaghues",
    "address":"O'Donaghue's, 174 Goldhawk Road, London",
    "postcode":"W12 8HJ",
    "easting":522762,
    "northing":179533,
    "authority":"Hammersmith and Fulham"
    }
  },
  {
    "type": "Feature",
    "geometry": {
       "type": "Point",
       "coordinates":  [ -0.222939,51.488278 ]
    },
    "properties": {
    "fsa_ID":115122,
    "name":"Old Suffolk Punch",
    "address":"80 Fulham Palace Road, London",
    "postcode":"W6 9PL",
    "easting":523478,
    "northing":178089,
    "authority":"Hammersmith and Fulham"
    }
  },
  {
    "type": "Feature",
    "geometry": {
       "type": "Point",
       "coordinates":  [ -0.232831,51.492834 ]
    },
    "properties": {
    "fsa_ID":115222,
    "name":"Plough And Harrow",
    "address":"122 King Street, London",
    "postcode":"W6 0QU",
    "easting":522779,
    "northing":178579,
    "authority":"Hammersmith and Fulham"
    }
  },
  {
    "type": "Feature",
    "geometry": {
       "type": "Point",
       "coordinates":  [ -0.240263,51.506327 ]
    },
    "properties": {
    "fsa_ID":115256,
    "name":"Princess Victoria",
    "address":"217 Uxbridge Road, London",
    "postcode":"W12 9DH",
    "easting":522227,
    "northing":180067,
    "authority":"Hammersmith and Fulham"
    }
  },
  {
    "type": "Feature",
    "geometry": {
       "type": "Point",
       "coordinates":  [ -0.237846,51.506614 ]
    },
    "properties": {
    "fsa_ID":115267,
    "name":"Queen Adelaide",
    "address":"412 Uxbridge Road, London",
    "postcode":"W12 0NR",
    "easting":522394,
    "northing":180102,
    "authority":"Hammersmith and Fulham"
    }
  },
  {
    "type": "Feature",
    "geometry": {
       "type": "Point",
       "coordinates":  [ -0.18874,51.474556 ]
    },
    "properties": {
    "fsa_ID":115268,
    "name":"Queen Elizabeth Hostel",
    "address":"Queen Elizabeth, 58 Bagley's Lane, London",
    "postcode":"SW6 2BH",
    "easting":525890,
    "northing":176622,
    "authority":"Hammersmith and Fulham"
    }
  },
  {
    "type": "Feature",
    "geometry": {
       "type": "Point",
       "coordinates":  [ -0.226724,51.512102 ]
    },
    "properties": {
    "fsa_ID":115270,
    "name":"Queens Tavern",
    "address":"51 South Africa Road, London",
    "postcode":"W12 7PA",
    "easting":523152,
    "northing":180732,
    "authority":"Hammersmith and Fulham"
    }
  },
  {
    "type": "Feature",
    "geometry": {
       "type": "Point",
       "coordinates":  [ -0.198739,51.480247 ]
    },
    "properties": {
    "fsa_ID":115291,
    "name":"Redback",
    "address":"The Slug, 490 - 492 Fulham Road, London",
    "postcode":"SW6 5NH",
    "easting":525180,
    "northing":177238,
    "authority":"Hammersmith and Fulham"
    }
  },
  {
    "type": "Feature",
    "geometry": {
       "type": "Point",
       "coordinates":  [ -0.234369,51.500375 ]
    },
    "properties": {
    "fsa_ID":115374,
    "name":"Shepherds Bush Club",
    "address":"205 Goldhawk Road, London",
    "postcode":"W12 8EP",
    "easting":522652,
    "northing":179416,
    "authority":"Hammersmith and Fulham"
    }
  },
  {
    "type": "Feature",
    "geometry": {
       "type": "Point",
       "coordinates":  [ -0.224435,51.503525 ]
    },
    "properties": {
    "fsa_ID":115375,
    "name":"Shepherds Bush Empire",
    "address":"Shepherd's Bush Green, London",
    "postcode":"W12 8TT",
    "easting":523333,
    "northing":179783,
    "authority":"Hammersmith and Fulham"
    }
  },
  {
    "type": "Feature",
    "geometry": {
       "type": "Point",
       "coordinates":  [ -0.199448,51.481265 ]
    },
    "properties": {
    "fsa_ID":115391,
    "name":"Simmons Bar",
    "address":"374 North End Road, London",
    "postcode":"SW6 1LY",
    "easting":525128,
    "northing":177350,
    "authority":"Hammersmith and Fulham"
    }
  },
  {
    "type": "Feature",
    "geometry": {
       "type": "Point",
       "coordinates":  [ -0.241004,51.499081 ]
    },
    "properties": {
    "fsa_ID":115471,
    "name":"Sulgrave Club",
    "address":"287 Goldhawk Road, London",
    "postcode":"W12 8EU",
    "easting":522195,
    "northing":179260,
    "authority":"Hammersmith and Fulham"
    }
  },
  {
    "type": "Feature",
    "geometry": {
       "type": "Point",
       "coordinates":  [ -0.213799,51.494003 ]
    },
    "properties": {
    "fsa_ID":115541,
    "name":"The Albion",
    "address":"121 Hammersmith Road, London",
    "postcode":"W14 0QL",
    "easting":524097,
    "northing":178741,
    "authority":"Hammersmith and Fulham"
    }
  },
  {
    "type": "Feature",
    "geometry": {
       "type": "Point",
       "coordinates":  [ -0.243986,51.506571 ]
    },
    "properties": {
    "fsa_ID":115544,
    "name":"The Askew",
    "address":"269 Uxbridge Road, London",
    "postcode":"W12 9DS",
    "easting":521968,
    "northing":180088,
    "authority":"Hammersmith and Fulham"
    }
  },
  {
    "type": "Feature",
    "geometry": {
       "type": "Point",
       "coordinates":  [ -0.195997,51.485898 ]
    },
    "properties": {
    "fsa_ID":115546,
    "name":"The Atlas",
    "address":"16 Seagrave Road, London",
    "postcode":"SW6 1RX",
    "easting":525355,
    "northing":177871,
    "authority":"Hammersmith and Fulham"
    }
  },
  {
    "type": "Feature",
    "geometry": {
       "type": "Point",
       "coordinates":  [ -0.209372,51.481265 ]
    },
    "properties": {
    "fsa_ID":115548,
    "name":"The Bedford Arms",
    "address":"204 Dawes Road, London",
    "postcode":"SW6 7RQ",
    "easting":524439,
    "northing":177333,
    "authority":"Hammersmith and Fulham"
    }
  },
  {
    "type": "Feature",
    "geometry": {
       "type": "Point",
       "coordinates":  [ -0.242346,51.490396 ]
    },
    "properties": {
    "fsa_ID":115549,
    "name":"The Black Lion PH",
    "address":"The Black Lion, 2 South Black Lion Lane, London",
    "postcode":"W6 9TJ",
    "easting":522125,
    "northing":178293,
    "authority":"Hammersmith and Fulham"
    }
  },
  {
    "type": "Feature",
    "geometry": {
       "type": "Point",
       "coordinates":  [ -0.206834,51.474724 ]
    },
    "properties": {
    "fsa_ID":115552,
    "name":"The Brown Cow",
    "address":"Munster House, 676 Fulham Road, London",
    "postcode":"SW6 5SA",
    "easting":524634,
    "northing":176609,
    "authority":"Hammersmith and Fulham"
    }
  },
  {
    "type": "Feature",
    "geometry": {
       "type": "Point",
       "coordinates":  [ -0.223254,51.507212 ]
    },
    "properties": {
    "fsa_ID":115553,
    "name":"The Bull",
    "address":"Unit 1033, Westfield London Shopping Centre, Ariel Way, London",
    "postcode":"W12 7GA",
    "easting":523406,
    "northing":180194,
    "authority":"Hammersmith and Fulham"
    }
  },
  {
    "type": "Feature",
    "geometry": {
       "type": "Point",
       "coordinates":  [ -0.20958,51.481088 ]
    },
    "properties": {
    "fsa_ID":115556,
    "name":"The Captain Cook",
    "address":"The Wilton Arms, 203 - 205 Dawes Road, London",
    "postcode":"SW6 7QY",
    "easting":524425,
    "northing":177313,
    "authority":"Hammersmith and Fulham"
    }
  },
  {
    "type": "Feature",
    "geometry": {
       "type": "Point",
       "coordinates":  [ -0.227115,51.488692 ]
    },
    "properties": {
    "fsa_ID":115558,
    "name":"The Chancellors",
    "address":"25 Crisp Road, London",
    "postcode":"W6 9RL",
    "easting":523186,
    "northing":178128,
    "authority":"Hammersmith and Fulham"
    }
  },
  {
    "type": "Feature",
    "geometry": {
       "type": "Point",
       "coordinates":  [ -0.187507,51.479507 ]
    },
    "properties": {
    "fsa_ID":115559,
    "name":"The Chelsea Lodge",
    "address":"Mare Motto, 562 King's Road, London",
    "postcode":"SW6 2DZ",
    "easting":525962,
    "northing":177175,
    "authority":"Hammersmith and Fulham"
    }
  },
  {
    "type": "Feature",
    "geometry": {
       "type": "Point",
       "coordinates":  [ -0.205252,51.488612 ]
    },
    "properties": {
    "fsa_ID":115561,
    "name":"The Clarence",
    "address":"148 North End Road, London",
    "postcode":"W14 9PP",
    "easting":524706,
    "northing":178156,
    "authority":"Hammersmith and Fulham"
    }
  },
  {
    "type": "Feature",
    "geometry": {
       "type": "Point",
       "coordinates":  [ -0.210529,51.48666 ]
    },
    "properties": {
    "fsa_ID":115563,
    "name":"The Colton Arms",
    "address":"187 Greyhound Road, London",
    "postcode":"W14 9SD",
    "easting":524344,
    "northing":177930,
    "authority":"Hammersmith and Fulham"
    }
  },
  {
    "type": "Feature",
    "geometry": {
       "type": "Point",
       "coordinates":  [ -0.223954,51.483276 ]
    },
    "properties": {
    "fsa_ID":115564,
    "name":"The Crabtree",
    "address":"Crabtree Public House, Rainville Road, London",
    "postcode":"W6 9HJ",
    "easting":523421,
    "northing":177532,
    "authority":"Hammersmith and Fulham"
    }
  },
  {
    "type": "Feature",
    "geometry": {
       "type": "Point",
       "coordinates":  [ -0.224571,51.492242 ]
    },
    "properties": {
    "fsa_ID":115565,
    "name":"The Craft Beer Co",
    "address":"Unit 17-18, Broadway Shopping Centre, Hammersmith Broadway, London",
    "postcode":"W6 9YD",
    "easting":523354,
    "northing":178527,
    "authority":"Hammersmith and Fulham"
    }
  },
  {
    "type": "Feature",
    "geometry": {
       "type": "Point",
       "coordinates":  [ -0.228628,51.494623 ]
    },
    "properties": {
    "fsa_ID":115567,
    "name":"The Dartmouth Castle",
    "address":"Dartmouth Castle, 26 Glenthorne Road, London",
    "postcode":"W6 0LS",
    "easting":523066,
    "northing":178785,
    "authority":"Hammersmith and Fulham"
    }
  },
  {
    "type": "Feature",
    "geometry": {
       "type": "Point",
       "coordinates":  [ -0.236576,51.490616 ]
    },
    "properties": {
    "fsa_ID":115570,
    "name":"The Dove",
    "address":"19 Upper Mall, London",
    "postcode":"W6 9TA",
    "easting":522525,
    "northing":178327,
    "authority":"Hammersmith and Fulham"
    }
  },
  {
    "type": "Feature",
    "geometry": {
       "type": "Point",
       "coordinates":  [ -0.224266,51.495627 ]
    },
    "properties": {
    "fsa_ID":115571,
    "name":"The Draft House",
    "address":"Draft House, 238 Shepherd's Bush Road, London",
    "postcode":"W6 7NL",
    "easting":523366,
    "northing":178904,
    "authority":"Hammersmith and Fulham"
    }
  },
  {
    "type": "Feature",
    "geometry": {
       "type": "Point",
       "coordinates":  [ -0.244318,51.497179 ]
    },
    "properties": {
    "fsa_ID":115572,
    "name":"The Duchess Of Cambridge",
    "address":"320 Goldhawk Road, London",
    "postcode":"W6 0XF",
    "easting":521970,
    "northing":179043,
    "authority":"Hammersmith and Fulham"
    }
  },
  {
    "type": "Feature",
    "geometry": {
       "type": "Point",
       "coordinates":  [ -0.207963,51.473833 ]
    },
    "properties": {
    "fsa_ID":115573,
    "name":"The Durell",
    "address":"704 Fulham Road, London",
    "postcode":"SW6 5SB",
    "easting":524558,
    "northing":176508,
    "authority":"Hammersmith and Fulham"
    }
  },
  {
    "type": "Feature",
    "geometry": {
       "type": "Point",
       "coordinates":  [ -0.239595,51.500867 ]
    },
    "properties": {
    "fsa_ID":115574,
    "name":"The Eagle",
    "address":"215 Askew Road, London",
    "postcode":"W12 9AZ",
    "easting":522288,
    "northing":179461,
    "authority":"Hammersmith and Fulham"
    }
  },
  {
    "type": "Feature",
    "geometry": {
       "type": "Point",
       "coordinates":  [ -0.20368,51.480225 ]
    },
    "properties": {
    "fsa_ID":115583,
    "name":"The Fulham Mitre",
    "address":"The Mitre, 81 Dawes Road, London",
    "postcode":"SW6 7DU",
    "easting":524837,
    "northing":177227,
    "authority":"Hammersmith and Fulham"
    }
  },
  {
    "type": "Feature",
    "geometry": {
       "type": "Point",
       "coordinates":  [ -0.209974,51.469925 ]
    },
    "properties": {
    "fsa_ID":115589,
    "name":"The Golden Lion",
    "address":"Golden Lion, 57 Fulham High Street, London",
    "postcode":"SW6 3JJ",
    "easting":524429,
    "northing":176071,
    "authority":"Hammersmith and Fulham"
    }
  },
  {
    "type": "Feature",
    "geometry": {
       "type": "Point",
       "coordinates":  [ -0.202692,51.4852 ]
    },
    "properties": {
    "fsa_ID":115592,
    "name":"The Goose At Fulham",
    "address":"The Goose, 248 North End Road, London",
    "postcode":"SW6 1NL",
    "easting":524893,
    "northing":177781,
    "authority":"Hammersmith and Fulham"
    }
  },
  {
    "type": "Feature",
    "geometry": {
       "type": "Point",
       "coordinates":  [ -0.225527,51.505475 ]
    },
    "properties": {
    "fsa_ID":115595,
    "name":"The Green Public House",
    "address":"172 - 174 Uxbridge Road, London",
    "postcode":"W12 7JP",
    "easting":523252,
    "northing":179998,
    "authority":"Hammersmith and Fulham"
    }
  },
  {
    "type": "Feature",
    "geometry": {
       "type": "Point",
       "coordinates":  [ -0.227507,51.497341 ]
    },
    "properties": {
    "fsa_ID":115598,
    "name":"The Grove Bar And Restaurant",
    "address":"The Grove, 83 Hammersmith Grove, London",
    "postcode":"W6 0NQ",
    "easting":523136,
    "northing":179089,
    "authority":"Hammersmith and Fulham"
    }
  },
  {
    "type": "Feature",
    "geometry": {
       "type": "Point",
       "coordinates":  [ -0.227717,51.492478 ]
    },
    "properties": {
    "fsa_ID":115599,
    "name":"The Hammersmith Ram",
    "address":"81 King Street, London",
    "postcode":"W6 9HW",
    "easting":523135,
    "northing":178548,
    "authority":"Hammersmith and Fulham"
    }
  },
  {
    "type": "Feature",
    "geometry": {
       "type": "Point",
       "coordinates":  [ -0.233318,51.492536 ]
    },
    "properties": {
    "fsa_ID":115600,
    "name":"The Hampshire",
    "address":"The Hampshire Hog, 225 - 227 King Street, London",
    "postcode":"W6 9JT",
    "easting":522746,
    "northing":178546,
    "authority":"Hammersmith and Fulham"
    }
  },
  {
    "type": "Feature",
    "geometry": {
       "type": "Point",
       "coordinates":  [ -0.21596,51.499548 ]
    },
    "properties": {
    "fsa_ID":115601,
    "name":"The Havelock Tavern",
    "address":"The Havelock, 57 Masbro' Road, London",
    "postcode":"W14 0LS",
    "easting":523932,
    "northing":179354,
    "authority":"Hammersmith and Fulham"
    }
  },
  {
    "type": "Feature",
    "geometry": {
       "type": "Point",
       "coordinates":  [ -0.226821,51.50331 ]
    },
    "properties": {
    "fsa_ID":115602,
    "name":"The Hawks Nest-Sugo",
    "address":"190 Railway Arches, Shepherd's Bush Market, London",
    "postcode":"W12 8DF",
    "easting":523169,
    "northing":179754,
    "authority":"Hammersmith and Fulham"
    }
  },
  {
    "type": "Feature",
    "geometry": {
       "type": "Point",
       "coordinates":  [ -0.225646,51.492753 ]
    },
    "properties": {
    "fsa_ID":115606,
    "name":"The Hop Poles",
    "address":"Hop Poles, 17 - 19 King Street, London",
    "postcode":"W6 9HR",
    "easting":523278,
    "northing":178582,
    "authority":"Hammersmith and Fulham"
    }
  },
  {
    "type": "Feature",
    "geometry": {
       "type": "Point",
       "coordinates":  [ -0.200572,51.466265 ]
    },
    "properties": {
    "fsa_ID":115608,
    "name":"The Hurlingham Club",
    "address":"Hurlingham Club, Ranelagh Gardens, London",
    "postcode":"SW6 3PR",
    "easting":525091,
    "northing":175680,
    "authority":"Hammersmith and Fulham"
    }
  },
  {
    "type": "Feature",
    "geometry": {
       "type": "Point",
       "coordinates":  [ -0.188454,51.478498 ]
    },
    "properties": {
    "fsa_ID":115610,
    "name":"The Imperial",
    "address":"Imperial Arms, 577 King's Road, London",
    "postcode":"SW6 2EH",
    "easting":525900,
    "northing":177061,
    "authority":"Hammersmith and Fulham"
    }
  },
  {
    "type": "Feature",
    "geometry": {
       "type": "Point",
       "coordinates":  [ -0.216241,51.497133 ]
    },
    "properties": {
    "fsa_ID":115613,
    "name":"The Jameson",
    "address":"43 Blythe Road, London",
    "postcode":"W14 0HR",
    "easting":523920,
    "northing":179085,
    "authority":"Hammersmith and Fulham"
    }
  },
  {
    "type": "Feature",
    "geometry": {
       "type": "Point",
       "coordinates":  [ -0.19745,51.486289 ]
    },
    "properties": {
    "fsa_ID":115618,
    "name":"The Lillie Langtry",
    "address":"19 Lillie Road, London",
    "postcode":"SW6 1UE",
    "easting":525253,
    "northing":177911,
    "authority":"Hammersmith and Fulham"
    }
  },
  {
    "type": "Feature",
    "geometry": {
       "type": "Point",
       "coordinates":  [ -0.187578,51.478977 ]
    },
    "properties": {
    "fsa_ID":115620,
    "name":"The Lost Hours",
    "address":"The Jam Tree, 541 King's Road, London",
    "postcode":"SW6 2EB",
    "easting":525959,
    "northing":177116,
    "authority":"Hammersmith and Fulham"
    }
  },
  {
    "type": "Feature",
    "geometry": {
       "type": "Point",
       "coordinates":  [ -0.19876,51.481561 ]
    },
    "properties": {
    "fsa_ID":115623,
    "name":"The Malt House",
    "address":"Jolly Maltster, 17 Vanston Place, London",
    "postcode":"SW6 1AY",
    "easting":525175,
    "northing":177383,
    "authority":"Hammersmith and Fulham"
    }
  },
  {
    "type": "Feature",
    "geometry": {
       "type": "Point",
       "coordinates":  [ -0.241004,51.499081 ]
    },
    "properties": {
    "fsa_ID":115625,
    "name":"The Oak W12",
    "address":"The Oak, 243 Goldhawk Road, London",
    "postcode":"W12 8EU",
    "easting":522195,
    "northing":179260,
    "authority":"Hammersmith and Fulham"
    }
  },
  {
    "type": "Feature",
    "geometry": {
       "type": "Point",
       "coordinates":  [ -0.228962,51.48935 ]
    },
    "properties": {
    "fsa_ID":115626,
    "name":"The Old City Arms",
    "address":"107 Hammersmith Bridge Road, London",
    "postcode":"W6 9DA",
    "easting":523057,
    "northing":178198,
    "authority":"Hammersmith and Fulham"
    }
  },
  {
    "type": "Feature",
    "geometry": {
       "type": "Point",
       "coordinates":  [ -0.203566,51.486814 ]
    },
    "properties": {
    "fsa_ID":115627,
    "name":"The Old Oak",
    "address":"180 North End Road, London",
    "postcode":"W14 9NX",
    "easting":524827,
    "northing":177959,
    "authority":"Hammersmith and Fulham"
    }
  },
  {
    "type": "Feature",
    "geometry": {
       "type": "Point",
       "coordinates":  [ -0.240028,51.49038 ]
    },
    "properties": {
    "fsa_ID":115628,
    "name":"The Old Ship",
    "address":"Old Ship, 25 Upper Mall, London",
    "postcode":"W6 9TD",
    "easting":522286,
    "northing":178294,
    "authority":"Hammersmith and Fulham"
    }
  },
  {
    "type": "Feature",
    "geometry": {
       "type": "Point",
       "coordinates":  [ -0.242337,51.501861 ]
    },
    "properties": {
    "fsa_ID":115629,
    "name":"The Orchard Tavern",
    "address":"Orchard Tavern, 136 Askew Road, London",
    "postcode":"W12 9BP",
    "easting":522095,
    "northing":179567,
    "authority":"Hammersmith and Fulham"
    }
  },
  {
    "type": "Feature",
    "geometry": {
       "type": "Point",
       "coordinates":  [ -0.194436,51.48056 ]
    },
    "properties": {
    "fsa_ID":115630,
    "name":"The Oyster Rooms",
    "address":"Restaurant Unit 3, Fulham Broadway Retail Centre, Fulham Road, London",
    "postcode":"SW6 1BW",
    "easting":525478,
    "northing":177279,
    "authority":"Hammersmith and Fulham"
    }
  },
  {
    "type": "Feature",
    "geometry": {
       "type": "Point",
       "coordinates":  [ -0.197773,51.466583 ]
    },
    "properties": {
    "fsa_ID":115631,
    "name":"The Parsons Green Sports & Social Club",
    "address":"Parsons Green Sports And Social Clu, 31 Broomhouse Lane, London",
    "postcode":"SW6 3DP",
    "easting":525285,
    "northing":175719,
    "authority":"Hammersmith and Fulham"
    }
  },
  {
    "type": "Feature",
    "geometry": {
       "type": "Point",
       "coordinates":  [ -0.227712,51.518583 ]
    },
    "properties": {
    "fsa_ID":115632,
    "name":"The Pavilion",
    "address":"Wood Lane, London",
    "postcode":"W12 0HQ",
    "easting":523066,
    "northing":181450,
    "authority":"Hammersmith and Fulham"
    }
  },
  {
    "type": "Feature",
    "geometry": {
       "type": "Point",
       "coordinates":  [ -0.239127,51.506651 ]
    },
    "properties": {
    "fsa_ID":115634,
    "name":"The Pocket Watch",
    "address":"434 Uxbridge Road, London",
    "postcode":"W12 0NS",
    "easting":522305,
    "northing":180105,
    "authority":"Hammersmith and Fulham"
    }
  },
  {
    "type": "Feature",
    "geometry": {
       "type": "Point",
       "coordinates":  [ -0.196984,51.487145 ]
    },
    "properties": {
    "fsa_ID":115636,
    "name":"The Prince",
    "address":"14 Lillie Road, London",
    "postcode":"SW6 1TU",
    "easting":525284,
    "northing":178008,
    "authority":"Hammersmith and Fulham"
    }
  },
  {
    "type": "Feature",
    "geometry": {
       "type": "Point",
       "coordinates":  [ -0.218156,51.49531 ]
    },
    "properties": {
    "fsa_ID":115638,
    "name":"The Queens Head",
    "address":"Queens Head, 13 Brook Green, London",
    "postcode":"W6 7BL",
    "easting":523791,
    "northing":178879,
    "authority":"Hammersmith and Fulham"
    }
  },
  {
    "type": "Feature",
    "geometry": {
       "type": "Point",
       "coordinates":  [ -0.244752,51.494137 ]
    },
    "properties": {
    "fsa_ID":115639,
    "name":"The Raven",
    "address":"375 Goldhawk Road, London",
    "postcode":"W6 0SA",
    "easting":521948,
    "northing":178704,
    "authority":"Hammersmith and Fulham"
    }
  },
  {
    "type": "Feature",
    "geometry": {
       "type": "Point",
       "coordinates":  [ -0.221716,51.500831 ]
    },
    "properties": {
    "fsa_ID":115641,
    "name":"The Richmond Arms",
    "address":"The Richmond, 55 Shepherd's Bush Road, London",
    "postcode":"W6 7LU",
    "easting":523529,
    "northing":179487,
    "authority":"Hammersmith and Fulham"
    }
  },
  {
    "type": "Feature",
    "geometry": {
       "type": "Point",
       "coordinates":  [ -0.234857,51.494069 ]
    },
    "properties": {
    "fsa_ID":115643,
    "name":"The Rooks Nest",
    "address":"The Egerton, 73 Dalling Road, London",
    "postcode":"W6 0JD",
    "easting":522635,
    "northing":178713,
    "authority":"Hammersmith and Fulham"
    }
  },
  {
    "type": "Feature",
    "geometry": {
       "type": "Point",
       "coordinates":  [ -0.189864,51.476712 ]
    },
    "properties": {
    "fsa_ID":115644,
    "name":"The Rose",
    "address":"1 Harwood Terrace, London",
    "postcode":"SW6 2AF",
    "easting":525807,
    "northing":176859,
    "authority":"Hammersmith and Fulham"
    }
  },
  {
    "type": "Feature",
    "geometry": {
       "type": "Point",
       "coordinates":  [ -0.231434,51.489853 ]
    },
    "properties": {
    "fsa_ID":115645,
    "name":"The Rutland",
    "address":"15 Lower Mall, London",
    "postcode":"W6 9DJ",
    "easting":522884,
    "northing":178250,
    "authority":"Hammersmith and Fulham"
    }
  },
  {
    "type": "Feature",
    "geometry": {
       "type": "Point",
       "coordinates":  [ -0.232831,51.492834 ]
    },
    "properties": {
    "fsa_ID":115647,
    "name":"The Salutation",
    "address":"154 King Street, London",
    "postcode":"W6 0QU",
    "easting":522779,
    "northing":178579,
    "authority":"Hammersmith and Fulham"
    }
  },
  {
    "type": "Feature",
    "geometry": {
       "type": "Point",
       "coordinates":  [ -0.187083,51.472388 ]
    },
    "properties": {
    "fsa_ID":115648,
    "name":"The Sands End",
    "address":"135 - 137 Stephendale Road, London",
    "postcode":"SW6 2PR",
    "easting":526012,
    "northing":176384,
    "authority":"Hammersmith and Fulham"
    }
  },
  {
    "type": "Feature",
    "geometry": {
       "type": "Point",
       "coordinates":  [ -0.22791,51.502346 ]
    },
    "properties": {
    "fsa_ID":115650,
    "name":"The Shepherd & Flock",
    "address":"Shepherd And Flock, 84 Goldhawk Road, London",
    "postcode":"W12 8HA",
    "easting":523095,
    "northing":179645,
    "authority":"Hammersmith and Fulham"
    }
  },
  {
    "type": "Feature",
    "geometry": {
       "type": "Point",
       "coordinates":  [ -0.224054,51.50333 ]
    },
    "properties": {
    "fsa_ID":115651,
    "name":"The Sindercombe Social",
    "address":"Sindercombe Social, 2 Goldhawk Road, London",
    "postcode":"W12 8QD",
    "easting":523361,
    "northing":179761,
    "authority":"Hammersmith and Fulham"
    }
  },
  {
    "type": "Feature",
    "geometry": {
       "type": "Point",
       "coordinates":  [ -0.230095,51.493548 ]
    },
    "properties": {
    "fsa_ID":115654,
    "name":"The Stonemasons Arms",
    "address":"Stonemasons Arms, 54 Cambridge Grove, London",
    "postcode":"W6 0LA",
    "easting":522967,
    "northing":178663,
    "authority":"Hammersmith and Fulham"
    }
  },
  {
    "type": "Feature",
    "geometry": {
       "type": "Point",
       "coordinates":  [ -0.225098,51.493131 ]
    },
    "properties": {
    "fsa_ID":115656,
    "name":"The Swan",
    "address":"46 Hammersmith Broadway, London",
    "postcode":"W6 0DZ",
    "easting":523315,
    "northing":178625,
    "authority":"Hammersmith and Fulham"
    }
  },
  {
    "type": "Feature",
    "geometry": {
       "type": "Point",
       "coordinates":  [ -0.210395,51.469473 ]
    },
    "properties": {
    "fsa_ID":115657,
    "name":"The Temperance",
    "address":"90 Fulham High Street, London",
    "postcode":"SW6 3LF",
    "easting":524400,
    "northing":176019,
    "authority":"Hammersmith and Fulham"
    }
  },
  {
    "type": "Feature",
    "geometry": {
       "type": "Point",
       "coordinates":  [ -0.234915,51.497802 ]
    },
    "properties": {
    "fsa_ID":115658,
    "name":"The Thatched House",
    "address":"Thatched House, 115 Dalling Road, London",
    "postcode":"W6 0ET",
    "easting":522621,
    "northing":179128,
    "authority":"Hammersmith and Fulham"
    }
  },
  {
    "type": "Feature",
    "geometry": {
       "type": "Point",
       "coordinates":  [ -0.202228,51.482747 ]
    },
    "properties": {
    "fsa_ID":115666,
    "name":"The Wellington",
    "address":"56 Haldane Road, London",
    "postcode":"SW6 7EU",
    "easting":524931,
    "northing":177510,
    "authority":"Hammersmith and Fulham"
    }
  },
  {
    "type": "Feature",
    "geometry": {
       "type": "Point",
       "coordinates":  [ -0.227611,51.505578 ]
    },
    "properties": {
    "fsa_ID":115667,
    "name":"The White Horse",
    "address":"White Horse, 31 Uxbridge Road, London",
    "postcode":"W12 8LH",
    "easting":523108,
    "northing":180005,
    "authority":"Hammersmith and Fulham"
    }
  },
  {
    "type": "Feature",
    "geometry": {
       "type": "Point",
       "coordinates":  [ -0.225676,51.493085 ]
    },
    "properties": {
    "fsa_ID":115668,
    "name":"The William Morris",
    "address":"2 - 4 King Street, London",
    "postcode":"W6 0QA",
    "easting":523275,
    "northing":178620,
    "authority":"Hammersmith and Fulham"
    }
  },
  {
    "type": "Feature",
    "geometry": {
       "type": "Point",
       "coordinates":  [ -0.192269,51.47818 ]
    },
    "properties": {
    "fsa_ID":115686,
    "name":"Tommy Tucker",
    "address":"The Tommy Tucker, 22 Waterford Road, London",
    "postcode":"SW6 2DR",
    "easting":525635,
    "northing":177019,
    "authority":"Hammersmith and Fulham"
    }
  },
  {
    "type": "Feature",
    "geometry": {
       "type": "Point",
       "coordinates":  [ -0.181074,51.473249 ]
    },
    "properties": {
    "fsa_ID":115737,
    "name":"Waterside",
    "address":"Unit 2, Riverside Tower, The Boulevard, London",
    "postcode":"SW6 2SU",
    "easting":526426,
    "northing":176490,
    "authority":"Hammersmith and Fulham"
    }
  },
  {
    "type": "Feature",
    "geometry": {
       "type": "Point",
       "coordinates":  [ -0.199153,51.473788 ]
    },
    "properties": {
    "fsa_ID":115747,
    "name":"White Horse",
    "address":"1 - 3 Parsons Green, London",
    "postcode":"SW6 4UL",
    "easting":525170,
    "northing":176519,
    "authority":"Hammersmith and Fulham"
    }
  }
]
}